{
  "WAREHOUSE": [
    {
      "id": "wh-001",
      "name": "Chennai Central Warehouse",
      "address": "Ambattur Industrial Estate",
      "city": "Chennai",
      "phone": "8977568680",
      "email": "wh1@logix.com",
      "password": "Raghuveer2007",
      "type": "WAREHOUSE",
      "isActive": true,
      "createdAt": "2026-03-01T09:00:00Z",
      "lat": "13.1143",
      "lng": "80.1548",
      "passwordUpdatedAt": "2026-05-03T13:01:01.977Z"
    },
    {
      "id": "wh-002",
      "name": "Bangalore Mega Warehouse",
      "address": "Peenya Industrial Area",
      "city": "Bangalore",
      "phone": "9876543211",
      "email": "wh2@logix.com",
      "password": "hashed_password",
      "type": "WAREHOUSE",
      "isActive": true,
      "createdAt": "2026-03-02T10:00:00Z",
      "lat": "13.0318",
      "lng": "77.5192"
    },
    {
      "id": "wh-003",
      "name": "Hyderabad Storage Hub",
      "address": "Gachibowli Phase 2",
      "city": "Hyderabad",
      "phone": "9876543212",
      "email": "wh3@logix.com",
      "password": "hashed_password",
      "type": "WAREHOUSE",
      "isActive": true,
      "createdAt": "2026-03-03T11:00:00Z",
      "lat": "17.4400",
      "lng": "78.3489"
    },
    {
      "id": "wh-004",
      "name": "Mumbai West Warehouse",
      "address": "Andheri East",
      "city": "Mumbai",
      "phone": "9876543213",
      "email": "wh4@logix.com",
      "password": "hashed_password",
      "type": "WAREHOUSE",
      "isActive": true,
      "createdAt": "2026-03-04T12:00:00Z",
      "lat": "19.1136",
      "lng": "72.8697"
    },
    {
      "id": "wh-005",
      "name": "Delhi NCR Warehouse",
      "address": "Noida Sector 63",
      "city": "Delhi",
      "phone": "9876543214",
      "email": "wh5@logix.com",
      "password": "hashed_password",
      "type": "WAREHOUSE",
      "isActive": true,
      "createdAt": "2026-03-05T13:00:00Z",
      "lat": "28.6272",
      "lng": "77.3744"
    }
  ],
  "TRANSIT_HUB": [
    {
      "id": "hub-001",
      "name": "Chennai Transit Hub",
      "address": "Sriperumbudur Logistics Park",
      "city": "Chennai",
      "phone": "9876543220",
      "email": "hub1@logix.com",
      "password": "Sruthisai98",
      "type": "TRANSIT_HUB",
      "capacity": 200,
      "isActive": true,
      "createdAt": "2026-03-06T09:00:00Z",
      "passwordUpdatedAt": "2026-05-03T12:55:54.094Z",
      "lat": "12.9698",
      "lng": "79.9481"
    },
    {
      "id": "hub-002",
      "name": "Bangalore Transit Hub",
      "address": "Electronic City Phase 1",
      "city": "Bangalore",
      "phone": "9876543221",
      "email": "hub2@logix.com",
      "password": "hashed_password",
      "type": "TRANSIT_HUB",
      "capacity": 150,
      "isActive": true,
      "createdAt": "2026-03-07T10:00:00Z",
      "lat": "12.8458",
      "lng": "77.6609"
    },
    {
      "id": "hub-003",
      "name": "Hyderabad Transit Hub",
      "address": "Shamshabad Cargo Zone",
      "city": "Hyderabad",
      "phone": "9876543222",
      "email": "hub3@logix.com",
      "password": "hashed_password",
      "type": "TRANSIT_HUB",
      "capacity": 180,
      "isActive": true,
      "createdAt": "2026-03-08T11:00:00Z",
      "lat": "17.2403",
      "lng": "78.4294"
    },
    {
      "id": "hub-004",
      "name": "Mumbai Central Hub",
      "address": "Bhiwandi Logistics Hub",
      "city": "Mumbai",
      "phone": "9876543223",
      "email": "hub4@logix.com",
      "password": "hashed_password",
      "type": "TRANSIT_HUB",
      "capacity": 250,
      "isActive": true,
      "createdAt": "2026-03-09T12:00:00Z",
      "lat": "19.3000",
      "lng": "73.0585"
    },
    {
      "id": "hub-005",
      "name": "Delhi Transit Hub",
      "address": "Gurgaon Logistics Park",
      "city": "Delhi",
      "phone": "9876543224",
      "email": "hub5@logix.com",
      "password": "hashed_password",
      "type": "TRANSIT_HUB",
      "capacity": 220,
      "isActive": true,
      "createdAt": "2026-03-10T13:00:00Z",
      "lat": "28.4595",
      "lng": "77.0266"
    }
  ],
  "LOCAL_AGENCY": [
    {
      "id": "agency-001",
      "name": "Adyar Delivery Center",
      "address": "Adyar Main Road",
      "city": "Chennai",
      "phone": "9876543230",
      "email": "agency1@logix.com",
      "password": "Raghuveer2007",
      "type": "LOCAL_AGENCY",
      "isActive": true,
      "createdAt": "2026-03-11T09:00:00Z",
      "lat": "13.0067",
      "lng": "80.2573",
      "passwordUpdatedAt": "2026-04-25T19:33:20.481Z"
    },
    {
      "id": "agency-002",
      "name": "Whitefield Delivery Hub",
      "address": "Whitefield Road",
      "city": "Bangalore",
      "phone": "9876543231",
      "email": "agency2@logix.com",
      "password": "hashed_password",
      "type": "LOCAL_AGENCY",
      "isActive": true,
      "createdAt": "2026-03-12T10:00:00Z",
      "lat": "12.9698",
      "lng": "77.7500"
    },
    {
      "id": "agency-003",
      "name": "Hitech City Delivery Point",
      "address": "Madhapur",
      "city": "Hyderabad",
      "phone": "9876543232",
      "email": "agency3@logix.com",
      "password": "hashed_password",
      "type": "LOCAL_AGENCY",
      "isActive": true,
      "createdAt": "2026-03-13T11:00:00Z",
      "lat": "17.4486",
      "lng": "78.3908"
    },
    {
      "id": "agency-004",
      "name": "Tharun Delivery Office",
      "address": "Andheri West",
      "city": "Mumbai",
      "phone": "9876543233",
      "email": "agency4@logix.com",
      "password": "hashed_password",
      "type": "LOCAL_AGENCY",
      "isActive": true,
      "createdAt": "2026-03-14T12:00:00Z",
      "lat": "19.1197",
      "lng": "72.8468"
    },
    {
      "id": "agency-005",
      "name": "Karol Bagh Delivery Center",
      "address": "Karol Bagh",
      "city": "Delhi",
      "phone": "9876543234",
      "email": "agency5@logix.com",
      "password": "hashed_password",
      "type": "LOCAL_AGENCY",
      "isActive": true,
      "createdAt": "2026-03-15T13:00:00Z",
      "lat": "28.6524",
      "lng": "77.1907"
    }
  ],
  "SUPERUSER": [
    {
      "id": "SU-0001",
      "name": "System Administrator",
      "email": "su@ware2door.com",
      "password": "SuperAdmin@2026",
      "phone": "+91 9000000000",
      "address": "Ware2Door HQ, Chennai",
      "type": "SUPER_USER",
      "isActive": true,
      "createdAt": "2026-01-01T00:00:00Z"
    }
  ]
}